,name,categories,location.lat,location.lng
0,Le Pick Clops,Bar,48.85664845052019,2.356918874931123
1,Le P’tit Bourg,Restaurant,48.856769970913916,2.3553429543972015
2,Chez Mademoiselle,Restaurant,48.85429032043008,2.3598099177322163
3,Rivolux,Bar,48.85559040054201,2.35941883896175
4,Jaja Restaurant 3 Rue Sainte-Croix,Restaurant,48.857513,2.357389
5,Bidoche,Butcher,48.86508088637581,2.3670682311058044
6,Gramme,Restaurant,48.863121,2.360375
7,La Chamade,Restaurant,48.854311,2.365006
8,Hébé,Restaurant,48.850704,2.348898
9,Rendez-Vous Saint-Germain,Restaurant,48.85096224921496,2.3450382018924394
10,La French Guinguette,Bistro,48.86182051502064,2.3516183533382673
11,Le Ballon Rouge,Restaurant,48.867642489955664,2.3568518492939154
12,Margo,Restaurant,48.865105,2.3672376
13,L'adresse,Restaurant,48.865783,2.358392
14,Quartier libre,Restaurant,48.856367,2.376807
15,808 Mac And Cheesse,Restaurant,48.864387,2.365812
16,The Bistronomist,Restaurant,48.864112,2.366393
17,Des Vins A Vous,Restaurant,48.86431,2.3530087
18,TAEM restau-billot,Restaurant,48.857671,2.377296
19,Solento Maria,Restaurant,48.855657,2.3629
20,La Petite Maison dans la Cour,Restaurant,48.85316752846349,2.3607949252073865
21,luesone francaise,Restaurant,48.852063,2.344301
22,Le Beau Marché,Restaurant,48.859768,2.367886
23,Carbón,Restaurant,48.861714,2.361315
24,Giada's,Restaurant,48.852063,2.354631
25,Le Petit Commines,Restaurant,48.86214725783727,2.366151503269559
26,Le Rigmarole,Restaurant,48.865127,2.36912
27,Elmer,Restaurant,48.86730109373345,2.3595416257767576
28,Le III,Restaurant,48.860033585452264,2.3646036417253633
29,Waffle Factory,Dessert Shop,48.8622402,2.3449247
30,Au Coeur du Marais,Restaurant,48.859969801450895,2.356901988387108
31,Le Drapeau,Bar,48.85799846312331,2.353030093909688
32,La Terrasse des Archives,Café,48.86129717812386,2.3580024792708985
33,Patati Patata,Restaurant,48.85292813526992,2.3743464137331545
34,Comptoir Gourmet,Restaurant,48.859958,2.354374
35,Café Bords de Seine,Café,48.857491,2.34659
36,Le Cafe Pizz ´ Du Trésor,Restaurant,48.85714449449296,2.3576464145835505
37,Grand Cœur,Restaurant,48.859737289195145,2.353591484368578
38,Ave Maria,Restaurant,48.864528,2.373022
39,Au Père Tranquille,Coffee Shop,48.86219331613404,2.3483604566635705
40,La Paulette,Restaurant,48.86243615870727,2.363577434395189
41,tango,Restaurant,48.842118,2.34972
42,Samsar spécialité indienne,Restaurant,48.85787998311252,2.345232494825818
43,Angeelhi,Restaurant,48.854438,2.371573
44,Super !,Office,48.8559178879203,2.374656823138714
45,Ze Kitchen Galerie,Restaurant,48.85510110130317,2.341297271887015
46,Le Paradis du Fruit,Juice Bar,48.85383953050907,2.3437531292438507
47,Dessance,Restaurant,48.8624288996422,2.3594775230595406
48,Inaro,Wine Bar,48.8682063040474,2.361292432876479
49,Le Paradis du Fruit,Juice Bar,48.853357609641016,2.369874533978867
50,L'Affable,Restaurant,48.8562877067998,2.324009429423189
51,La Table du Luxembourg,Restaurant,48.846517818842244,2.3345866151649934
52,Tabac des Ministères,Restaurant,48.851601233263686,2.3190950689503365
53,Panino Rossi,Restaurant,48.84640511786365,2.3272642493247986
54,Subway,Sandwich Place,48.84406708328793,2.330966438706355
55,Pizza Hut,Pizza Place,48.860048468087705,2.307409862600366
56,Au Clover,Restaurant,48.855253889074696,2.3304743637242633
57,L'Atelier,Creperie,48.85232,2.335133
58,La Teerasse du The Westin Paris – Vendôme,Restaurant,48.865864,2.3270092
59,Restaurant du Louvre,Restaurant,48.862004,2.33438704
60,Pavillon des Tuileries,Café,48.86438361721407,2.325640448388542
61,Gilberte,Restaurant,48.853661,2.337057
62,Le Petit Medicis,Restaurant,48.84792015154471,2.33987897018434
63,Absinthe Place Saint Honore Paris,Restaurant,48.866536,2.331783
64,Bistrot Buci Mazarine,Restaurant,48.853892,2.338406
65,Mon Petit Poulet,Restaurant,48.857169,2.306182
66,Le Septieme Vins,Restaurant,48.85500950640948,2.305826566140988
67,Le Mont-Thabor,Restaurant,48.866296,2.326576
68,Lumen Restaurant,Restaurant,48.865354,2.333231
69,Raw Saint Germain,Restaurant,48.846557,2.327732
70,Restaurant universitaire Mabillon,Restaurant,48.85282,2.3353299625741992
71,Le Paris,Restaurant,48.85145836621551,2.327256202697754
72,Le Wok,Restaurant,48.854405,2.339079
73,Chez Germaine,Restaurant,48.84833434341341,2.319459021091461
74,La Gorgée,Restaurant,48.846907,2.329033
75,Le Transit,Restaurant,48.861675,2.314713
76,La Table d'Aki,Restaurant,48.85095079445157,2.3192392520499774
77,L'Epidon,Wine Bar,48.85084923086848,2.3396270355999973
78,Le Smoke,Bar,48.841510356752075,2.3265442727374728
79,Brasserie La Chouffe,Restaurant,48.847529,2.341506
80,Le Clos Belle Juliette,Restaurant,48.847421,2.322506
81,Cubana Café,Gastropub,48.84265023,2.32890874
82,Café Central,Coffee Shop,48.856459651043394,2.306445613503456
83,Café de la Comédie,Bar,48.86313584744163,2.335770472852391
84,Vecchia Bar Pizzeria,Restaurant,48.854704305840386,2.324866090926912
85,Bistrot du Palais Bourbon,Restaurant,48.857421216289836,2.3397410762070083
86,Café des Lettres,Restaurant,48.858641,2.326679
87,cesar saint germain,Restaurant,48.85146674750729,2.331223234934736
88,Restaurant tibetain,Restaurant,48.85116278761913,2.343093602941334
89,Dietetic Shop,Restaurant,48.841994596043754,2.329260541468934
90,Kitchen snacking brunch,Restaurant,48.848317,2.324223
91,Jazzcartoon,Restaurant,48.86550065980688,2.3384366979464906
92,Le Pré,Cocktail Bar,48.85289752905632,2.3353139107836602
93,Le Trait d'Union,Bar,48.84688894221899,2.3267590242560865
94,Café du Musée,Café,48.856208779708076,2.3152707517147064
95,Bruce,Restaurant,48.873334,2.352995
96,Floderer,Restaurant,48.872612,2.352752
97,Tartelettes,Bakery,48.86723,2.343784
98,Chez Jeannette,Café,48.87155271980542,2.3535707671864237
99,Via Mela,Restaurant,48.876642,2.343468
100,District 80 MM,Restaurant,48.86649153414699,2.344290624677512
101,Pouliche,Restaurant,48.871659,2.352372
102,Immersion,Restaurant,48.871037,2.35999
103,Kibele,Restaurant,48.87118054997898,2.352127004723073
104,Frenchie Pigalle,Restaurant,48.880931,2.337589
105,Louis,Restaurant,48.875105,2.339057
106,Åke,Restaurant,48.871944,2.3668199
107,المطعم اليمني في باريس Yemeni Restaurant In Paris,Restaurant,48.879728,2.335844
108,Elémentaire,Restaurant,48.866703,2.3448706
109,L Artisan De La Truffe,Restaurant,48.87795,2.339546
110,Mieux,Restaurant,48.876655217370754,2.3369550704956055
111,le côte d'azur,Restaurant,48.87004089355469,2.362074136734009
112,Poissonnerie Lorenzo,Restaurant,48.874294,2.342539
113,Chardon,Restaurant,48.87115,2.357953
114,なりたけらーめん,Restaurant,48.866480047150404,2.336391231228373
115,Les restos du coeur,Restaurant,48.87972339212152,2.354660679623297
116,Marrow,Café,48.87442541960633,2.358884811401367
117,L'Ivress Bourse,Wine Bar,48.868721,2.344765
118,Delice De Condorcet,Restaurant,48.879547,2.347954
119,Shine Garden,Restaurant,48.87681617724853,2.3360048227997123
120,Domino's Pizza,Pizza Place,48.87920978367882,2.353740720146334
121,Café du Commerce,Restaurant,48.88462667760873,2.34711621239843
122,Le Dunkerque,Café,48.881737,2.34638
123,Belushi's Gare du Nord,Sports Bar,48.87935489393545,2.358004382344983
124,Les Animals,Bar,48.87697591351928,2.3514966666698456
125,Le Bistrot des Colonnes,Bistro,48.869014821658666,2.3395149442087217
126,Tiffin Box,Restaurant,48.87621067701454,2.345377206802368
127,La Cantine Russe,Restaurant,48.881517,2.364184
128,Aux Petits Tonneaux,Bar,48.86831202350129,2.365857668241767
129,Le Paradis du Fruit,Juice Bar,48.87129336398436,2.3356430509944284
130,EXKi,Sandwich Place,48.87003803191742,2.334405221973618
131,Pollop,Restaurant,48.86649605309285,2.3429134599389445
132,Le Mesturet,Bistro,48.86891181531619,2.3384673412742822
133,PUR etc.,Restaurant,48.86945303141158,2.3452833916668254
134,Wild & The Moon,Restaurant,48.866698,2.331141
135,Inavoué,Restaurant,48.86763468509094,2.3315608259872533
136,La Cantine des Mama's,Restaurant,48.867955,2.347828
137,Nelson’s,Restaurant,48.863695,2.34302
138,Le Passage Saint Honoré,Restaurant,48.867556,2.331517
139,Le Brun,Restaurant,48.861383346238455,2.343236804008484
140,Chez katy,Restaurant,48.862577,2.340535
141,Les Jalles,Restaurant,48.869147451974875,2.3291011183548482
142,Baltard Au Louvre,Restaurant,48.86344080385927,2.3425018787384033
143,Cuistance,Restaurant,48.86203475486889,2.342529161681739
144,Acacia,Restaurant,48.868833,2.337337
145,Tartare,Restaurant,48.867594,2.326638
146,Trois B,Restaurant,48.883855,2.374768
147,Le Passage à Niveau,Restaurant,48.887638,2.384722
148,Subway,Fast Food Restaurant,48.8901493,2.3589868
149,Zen Bar,Restaurant,48.885136008419806,2.37042099237442
150,La Brasserie Moderne,Restaurant,48.87896447040532,2.377995550632477
151,Subway,Sandwich Place,48.88251706070745,2.3707596508307915
152,Subway,Sandwich Place,48.89618368800437,2.3740619549273934
153,Pizza Hut,Pizza Place,48.88097718751328,2.3742356583185256
154,Les Artistes du Faubourg,Restaurant,48.881877,2.3655972070991993
155,L'Olympe Café,Restaurant,48.87933818999999,2.385757
156,Fresh & Fast,Restaurant,48.88647064593749,2.3715724361560655
157,LA CHAUMIERE,Restaurant,48.8813379,2.3730316
158,Restaurant Sodexo Cap18,Restaurant,48.89584214421303,2.367577727545696
159,trema,Restaurant,48.89903346915829,2.3763631972582933
160,Roast Paris,Restaurant,48.88010556294637,2.366657853126526
161,Los Pollos,Restaurant,48.88191903352899,2.371634428810624
162,Bar Restaurant Chez K. Z.,Restaurant,48.893758,2.373584
163,La Marine,Restaurant,48.883885,2.371624
164,Lafayette Cafe,Restaurant,48.88112340944815,2.3621275776633546
165,Gustu,Restaurant,48.883462,2.369575
166,Tintamarre,Restaurant,48.884823,2.3782182
167,Quarter (restaurant and cofee,Restaurant,48.887703780272304,2.388199720342381
168,Cantoch' Orange,Restaurant,48.8798561479791,2.3692291046762985
169,La Forge,Restaurant,48.878423976482054,2.373723484404213
170,Terrasse De La Sybille,Bar,48.877606,2.381334
171,Café Odilon,Restaurant,48.889106,2.381923
172,Le Local Bio,Restaurant,48.8828299637543,2.3648799060361614
173,Quedubon,Restaurant,48.87809233944948,2.384332326627568
174,La Canaille 18,Restaurant,48.890171,2.360786
175,Le Canaille Gourmet,Restaurant,48.884605119228006,2.3641821742057796
176,Jardins De Paula,Restaurant,48.88596711475904,2.3730970751622547
177,กล้วยไม้ป่า,Restaurant,48.877805,2.36393
178,La violette,Restaurant,48.89306492330053,2.3874783728781925
179,Chez Cheng,Restaurant,48.88076,2.369485
180,Le Feu aux Trousses,Restaurant,48.88431034427055,2.3605587135887145
181,Restaurant Zitouna,Restaurant,48.883756,2.373079
182,bout bout resto,Restaurant,48.878351,2.376361
183,Djurdjura,Restaurant,48.88609170913696,2.3688358068466187
184,Le Sapin,Restaurant,48.87606380454972,2.3717466764755537
185,Shiabdeen's,Restaurant,48.883649,2.368023
186,Ahenefie,Restaurant,48.889379,2.35425
187,Le Petit Pelleport,Restaurant,48.884957,2.387198
188,Leefamilys,Restaurant,48.87909089155633,2.3668448467308307
189,Mika Burger,Restaurant,48.885769,2.387116
190,Chochana Café,Restaurant,48.883247,2.370509
191,Les Amateurs,Restaurant,48.886977,2.313758
192,Marcella,Restaurant,48.88122269632194,2.316719736974173
193,Iguana Batignolles,Restaurant,48.88808489827133,2.3115921020507812
194,L'Atelier des Pains,Bakery,48.8774981,2.31466741
195,Sans gêne,Lounge,48.88823024550953,2.3211332179560364
196,La Havane,Smoke Shop,48.88370863459183,2.3277809406462633
197,SUBWAY,Sandwich Place,48.887962834102574,2.3251248242806923
198,Aux Couleurs du Monde,Restaurant,48.888937999026595,2.3163635436887455
199,Pasta Più,Restaurant,48.884993,2.303845
200,Les Francaises,Restaurant,48.887897,2.320575
201,Le Cafe De Raphaelle,Restaurant,48.882418,2.314134
202,Le Faham,Restaurant,48.885513,2.311868
203,Le Tocqueville,Restaurant,48.88233737363563,2.314013692080849
204,Vapiano Batignolles,Restaurant,48.890005,2.312223
205,Les Résidents,Restaurant,48.884439,2.31244
206,Les Balcons,Restaurant,48.88297956673493,2.326416671276092
207,Le Petit Boutary,Restaurant,48.887894,2.3223567
208,Le Bistro du Parc,Restaurant,48.88142,2.307975
209,La Passerelle,Restaurant,48.884758,2.3258054
210,Pétrossian,Restaurant,48.87890539690586,2.3022428988562265
211,Marius Et Lucien,Restaurant,48.889212,2.319213
212,Privé De Dessert,Restaurant,48.888667,2.321825
213,Cuisine de Roxane,Restaurant,48.89145941291542,2.3215526522930743
214,Le Tocqueville,Bar,48.88755265519139,2.3075256283554637
215,Vert Midi,Restaurant,48.88458867,2.312252
216,L'aromatik,Restaurant,48.877215,2.322951
217,La Table de l'Ébéniste,Restaurant,48.886191,2.317664
218,Au Gourmet,Restaurant,48.88299636191355,2.3289055542756003
219,Un Air de Famille,Restaurant,48.88225598976708,2.3160053123954567
220,Le Clan Des Jules,Restaurant,48.888376,2.317023
221,Le Village,Restaurant,48.88256276148564,2.3150823456218395
222,Courcelles Saint-honoré,Restaurant,48.87781551913434,2.304976592478566
223,Homard et Boeuf,Restaurant,48.88211639077415,2.312997579574585
224,Jacques Cagna,Restaurant,48.8816015560394,2.3081204994902556
225,Irène et Bernard,Restaurant,48.89373941206808,2.32217911680039
226,La Compagnie,Restaurant,48.88247058589733,2.3012672830517102
227,L'amuse bouffe,Restaurant,48.881229,2.326774
228,Restaurant D'Entreprise Sony,Restaurant,48.90121096,2.31906681
229,L'Epicurien,Restaurant,48.888678,2.32199
230,Bistro Chez Rose,Restaurant,48.893754230438574,2.3229826224661285
231,Masa,Restaurant,48.882100277461475,2.3134363752168086
232,Mie And You,Restaurant,48.8807297824756,2.304728961713657
233,Mary,Restaurant,48.88594026835275,2.319311499595642
234,Café Le Miami,Restaurant,48.89057435,2.3201380499999997
235,C & Commerce,Restaurant,48.877403259277344,2.3213565349578857
236,Panettone,Restaurant,48.88327790649214,2.320450222994593
237,Le Paris Rome,Bar,48.88232362986096,2.321232500447429
238,Le Hasard Ludique,Cultural Center,48.89568736410062,2.328629493713379
239,Le Paradis du Fruit,Juice Bar,48.88335577536517,2.3265251246376155
240,La Place du Village,Restaurant,48.88332720535227,2.3199546002527436
241,Village Madeleine,Brasserie,48.871752,2.325919
242,Le Mistral,Restaurant,48.874247059504945,2.325617539619344
243,Restaurant D'entreprise Iliad,Restaurant,48.871648,2.320669
244,L'Homme Bleu,Moroccan Restaurant,48.86692230369342,2.374492885271431
245,Les Cuivres,Restaurant,48.86493,2.377641
246,Maison Sota,Restaurant,48.86376547212079,2.379218637943268
247,Paroles de Fromagers,Cheese Shop,48.86933920361957,2.3688237369060516
248,Vantre,Restaurant,48.868455281925904,2.370214462280273
249,Couscous Deli,Restaurant,48.86199856040473,2.3842170323795235
250,Le Paname Art Café,Restaurant,48.868349578078536,2.3698721259105366
251,Le Bichat,Restaurant,48.87039582060517,2.368748152699637
252,L'Esprit Tchaï,Juice Bar,48.86597749519842,2.378532875082587
253,Balls,Restaurant,48.861868,2.380297
254,Domino's Pizza,Pizza Place,48.86794656293707,2.3728535584293695
255,SHAKA Poke,Restaurant,48.86196893,2.34158034
256,Au Plaisir,Restaurant,48.864516,2.340922
257,Le Janissaire,Restaurant,48.856108,2.34924
258,Onze Bar,Restaurant,48.852674,2.345438
259,Le Bachaumont,Restaurant,48.866159397789765,2.344965544842543
260,Les Miscellanées de M. Jash,Food & Drink Shop,48.88013025781349,2.351278066635132
261,La Condesa,Restaurant,48.87855858160726,2.342798262834549
262,Cantine des Cheminots,Restaurant,48.88273946999099,2.355339614152231
263,Flo prestige,Restaurant,48.87712604929209,2.3589425430282653
264,Lo De Lo Lo,Restaurant,48.886468,2.345102
265,Pains A La Ligne,Restaurant,48.876644854829394,2.3594649593539487
266,Paris Istanbul,Restaurant,48.89131,2.3515155
267,La Cantine Monoprix,Restaurant,48.872226,2.343285
268,Oka,Restaurant,48.87912907798239,2.343487372627563
269,Restaurant Hotel Little Palace,Restaurant,48.867386,2.353741
270,1000 & 1 Délices,Restaurant,48.879554,2.343474
271,Hipopotamus Republique,Restaurant,48.86920836191003,2.349192319542544
272,Pardi,Restaurant,48.87679,2.355096
273,Polissons,Restaurant,48.889106,2.346378
274,GOSIER,Restaurant,48.879059,2.343042
275,KFC Paris Barbès,Fast Food Restaurant,48.88718828,2.34985482
276,Chef à la maison - Cours de cuisine prestige,Restaurant,48.87422783779572,2.347276210784912
277,Le Divan,Restaurant,48.872552319671094,2.350216991255233
278,La Table d'Anvers,Restaurant,48.881857,2.345055
279,Al Cantara,Restaurant,48.871108764399516,2.370150089263916
280,Tout Autre Chose,Restaurant,48.878646705704696,2.3427967623070853
281,Restaurant La Paix,Restaurant,48.85707315,2.38006733
282,Miam!,Restaurant,48.852861,2.383084
283,Café Léopard,Bar,48.85539982436347,2.384405223545244
284,Aimé,Restaurant,48.865492,2.384805
285,Les Marquises,Restaurant,48.86672,2.381287
286,Nouveau Carillon,Restaurant,48.855807666975245,2.3910505324602127
287,Jones,Bistro,48.85662364821762,2.380236814846336
288,A La Table D'attila,Restaurant,48.853899,2.381809
289,Le Grand Bain,Restaurant,48.871553545456734,2.378523527906064
290,Cannibale Café,Restaurant,48.86838742454477,2.3794496867544206
291,Moncoeur Belleville,Restaurant,48.87158107595808,2.3860336377560474
292,La Laverie,Café,48.868644,2.389721
293,Le Blason,Restaurant,48.845045913258616,2.434467124210678
294,Les Magnolias,Restaurant,48.83751377222086,2.4443543464620237
295,L’ours,Restaurant,48.847635,2.436623
296,Pizza Hut,Pizza Place,48.8448063,2.4339764
297,Le Bonheur,Restaurant,48.83618375,2.42087912
298,Sunny Bagel,Restaurant,48.84808766,2.44021988
299,Bistrot Mademoiselle,Restaurant,48.84897817011688,2.4231202270026113
300,Absolu,Restaurant,48.845213568549866,2.435765166174378
301,Cuisine de Perle,Restaurant,48.839116,2.419219
302,Regal's,Restaurant,48.848843,2.423253
303,Compass Restaurant Inter-Entreprises Vincennes,Restaurant,48.843333969011276,2.4294145636264726
304,ze cooper,Restaurant,48.84217884275431,2.425976481280189
305,Bocachica,Restaurant,48.84574357946534,2.427966437308692
306,RIE Avenance,Restaurant,48.84299809877284,2.4285559035898934
307,Domino's Pizza Saint-Mandé,Pizza Place,48.845402740384074,2.4275130237299436
308,La Bascule,Restaurant,48.848742,2.431517
309,Les Fées Papilles,Restaurant,48.8460739056433,2.438289212100164
310,kintaro,Restaurant,48.84588995692557,2.423334687911548
311,Le Brazza,Restaurant,48.848274339246395,2.4312592825619803
312,L'Ardoise,Restaurant,48.84693288228403,2.435166835784912
313,Metro N'home,Restaurant,48.84605,2.4202201
314,La Tête à L'Envers,Pub,48.84451036365804,2.440296836839302
315,Vinzen,Restaurant,48.848628997802734,2.43204402923584
316,Le Lakanal,Bar,48.83323725564183,2.3325227200984955
317,Simple,Restaurant,48.847744,2.323245
318,Pizza Hut,Pizza Place,48.8310538321412,2.330490358076304
319,Le Dax,Bar,48.840906946698524,2.316468287496835
320,Stam,Restaurant,48.83476,2.319387
321,Fulgurances L’entrepôt,Restaurant,48.834041,2.31622
322,Marso&Co,Restaurant,48.831493,2.346268
323,Sandwicherie Matisse,Restaurant,48.83010977742702,2.328827875285097
324,Restaurant du Moulin Vert,Restaurant,48.831571935133375,2.3189936578273773
325,Berty,Restaurant,48.8404794152248,2.3461371704223226
326,Jardin Secret,Restaurant,48.834003,2.3169723
327,Auberge du Moulin Vert,Restaurant,48.82986,2.323104
328,Le P'tit Gone,Restaurant,48.834919,2.345018
329,Niébé,Restaurant,48.842063,2.330093
330,Quai 14,Restaurant,48.827443,2.33143
331,Jazz Café Montparnasse,Restaurant,48.838943,2.3208182
332,Marsan By Helene Darroze,Restaurant,48.850098,2.3279207
333,Subway,Sandwich Place,48.84150746751718,2.3175180072680632
334,L'ariel,Café,48.82647730048998,2.341899933529003
335,Oronoya,Restaurant,48.842595,2.348824
336,Angkor monorom,Restaurant,48.83151838368265,2.3242783546293
337,Maison Macaroni,Restaurant,48.832375,2.3151
338,Arpege,Restaurant,48.838002867766704,2.316827115340028
339,O' Wenge,Restaurant,48.838041,2.31884
340,Petit luco,Restaurant,48.841844411987736,2.3373443810930765
341,Marine's Kitchen,Restaurant,48.831520080566406,2.3350160121917725
342,Cantine mairie de Paris,Restaurant,48.836367,2.330969
343,Le Grain De Blé,Restaurant,48.831256,2.341443
344,COOK AND GO,Restaurant,48.83211028726479,2.339416277092941
345,L'Escale Caraïbe,Restaurant,48.844868287879045,2.3339776884438717
346,L'Adada Bar,Bar,48.84053755615983,2.322256565093994
347,Le Bar de Fer,Wine Bar,48.84294010374814,2.3488820067268397
348,Cafétaria du Méridien Étoile,Restaurant,48.87945996423659,2.285258173942566
349,Helen,Restaurant,48.87504416655567,2.3041475255603614
350,Terrasse du Royal Monceau,Restaurant,48.87582160594734,2.3012014923527913
351,La Petite Cantine,Restaurant,48.872314,2.310213
352,le V restaurant & Lounge,Restaurant,48.87444994606879,2.2979207813380826
353,Spok,Restaurant,48.873821,2.303923
354,Au Coin de la Rue,Restaurant,48.89235462189126,2.2911008755936306
355,L'Officiel,Restaurant,48.875097543883314,2.3095764226309257
356,154,Restaurant,48.875094,2.311399
357,Le Lutin,Restaurant,48.879981,2.295095
358,La Flamme,Restaurant,48.87527218995613,2.2964443266391754
359,La Boétie,Restaurant,48.87227398964337,2.3089463290222554
360,La Taverne de la Mairie,Restaurant,48.891511,2.288936
361,Paris XVII,Restaurant,48.88193356649571,2.288804581183253
362,Apérock,Restaurant,48.878756,2.295413
363,Mamy Dinh,Restaurant,48.874427,2.307587
364,Les fougeres,Restaurant,48.8798651743636,2.2941809268658617
365,O'woks,Restaurant,48.890725,2.290201
366,Mie & You,Restaurant,48.881673,2.299807
367,C'est moi qui cuisine,Restaurant,48.890018,2.287602
368,O'liban,Restaurant,48.881459,2.295992
369,L'epicerie Verte,Restaurant,48.87939641475843,2.2965920710643415
370,Boucherie Christophe M,Restaurant,48.884132,2.2936
371,Clos De Courcelles,Restaurant,48.887046,2.295021
372,Restaurant de la Marine Marchande,Restaurant,48.850633,2.307513
373,Sushi Soba,Restaurant,48.84356,2.304855
374,Subway,Sandwich Place,48.844493,2.2940847
375,Pizza Hut,Pizza Place,48.840654,2.3047258
376,Pizza Hut,Pizza Place,48.84728738236631,2.298203176866309
377,Chez Lucie,Restaurant,48.85719142,2.30227309
378,La Maison des Protéines,Restaurant,48.842011,2.302673
379,Leon,Restaurant,48.853715,2.294677
380,Picchetto,Restaurant,48.850574,2.300375
381,Piccehtto,Restaurant,48.850809,2.300487
382,Aux Ducs de Bourgogne,Restaurant,48.85810097401735,2.317845092462093
383,Hôme,Restaurant,48.856681,2.317278
384,Restaurant Le Cinq Codet,Restaurant,48.85494525335787,2.3083957042332393
385,L’asphalte,Restaurant,48.848892,2.298329
386,La Ruche,Restaurant,48.846912,2.294088
387,Le Week-End,Restaurant,48.85013706696413,2.323698503920327
388,Burg'heure & Co,Burger Joint,48.8419,2.29847
389,Gou,Restaurant,48.850061,2.299579
390,Flirt'Thé,Tea Room,48.85203961906169,2.3080369369854195
391,Baby Bac,Restaurant,48.852345,2.323932
392,Le Gribeauval,Restaurant,48.8560776894964,2.3269794597910414
393,D'Alice,Restaurant,48.852362,2.314365
394,Parenthèse,Restaurant,48.85070998198047,2.3002684918612837
395,dix huit,Restaurant,48.840142114545976,2.3197046866052955
396,SUBWAY,Sandwich Place,48.85083641237893,2.2932030552253764
397,La Dolce Vita,Restaurant,48.848936,2.286859
398,Café Michel Rue Viala,Restaurant,48.85054075742951,2.2900040667408486
399,La Bulle Parisienne,Restaurant,48.858143,2.294732
400,Dandanna,Restaurant,48.85004079564189,2.2852118934354237
401,Radioeat,Restaurant,48.85216655237316,2.2796237037212164
402,Yido,Restaurant,48.84635,2.2835495
403,Sushi Tokyo,Restaurant,48.84556729109308,2.2882768682765455
404,Croisere Sur Seine,Restaurant,48.85301937743656,2.2854846815677714
405,Le Quai-nedy,Restaurant,48.85103,2.278733
406,Atelier du France,Restaurant,48.851543456774586,2.283551698953438
407,L'Atypic,Restaurant,48.84866819,2.28906665
408,Restaurant Téhéran,Restaurant,48.847798920905774,2.285140190891443
409,The Dine,Restaurant,48.850513,2.282116
410,La Cantine De La Tour Christal,Restaurant,48.84859781886659,2.2809904942159496
411,Eurest - Tour Mirabeau,Restaurant,48.846517821960845,2.279159261420981
412,L'Argument,Restaurant,48.840736537553944,2.28896102052769
413,FRAME Brasserie California,Restaurant,48.855876409401255,2.2927903889510937
414,Subway,Sandwich Place,48.85429816380148,2.2893937225076115
415,Le Passy,Bar,48.85857375073393,2.2843794705029428
416,Dupont Café,Café,48.837218,2.296008
417,Subway,Sandwich Place,48.837534,2.295421
418,La Girafe,Restaurant,48.862179807057025,2.2888498289765167
419,L Ardoise,Restaurant,48.84680016198893,2.277875533428766
420,Petit Journal Saint-Michel,Restaurant,48.84791080695202,2.286853741634131
421,Chez Ribe,Café,48.856377171144054,2.2928146083420478
422,Le Nouveau Disque Bleu,Café,48.837826,2.287071
423,Club des Loges,Restaurant,48.84778476433174,2.2468975416525487
424,Chez Moon,Restaurant,48.84763185268723,2.2675180435180664
425,Open Club,Restaurant,48.84742210093686,2.2473009989646258
426,Pizza Hut,Pizza Place,48.8501091,2.2699228
427,"Bel Ami, Paris",Restaurant,48.85482962261311,2.255354799557418
428,Le 191,Restaurant,48.83968785204835,2.262792543044284
429,Cantine FT,Restaurant,48.85199972952101,2.266796084056831
430,Le Petit Géricault,Restaurant,48.848353,2.262431
431,Cherubini,Restaurant,48.84961603249992,2.268415067850165
432,Relais Des Sultans,Restaurant,48.838206,2.25025
433,La Table du Recho,Restaurant,48.841766,2.261408
434,Le Pavillon des Princes,Restaurant,48.84789371615899,2.242965760885568
435,Little Bullles,Restaurant,48.839922,2.256041
436,L'auberge Du Mouton Blanc,Restaurant,48.847646,2.265728
437,Pouledeluxe,Restaurant,48.8504858805763,2.2672682418487966
438,Au Relais Chardon,Bistro,48.84119391678317,2.263696944171509
439,Domino's Pizza,Pizza Place,48.8489652,2.2651362
440,Toques Et Chefs,Restaurant,48.84953331083429,2.2684340481987277
441,Naked,Sandwich Place,48.87177108350578,2.3110589859136157
442,24 Le Restaurant,Restaurant,48.870710434487364,2.3114377465277087
443,The Kitchen Panthieu,Restaurant,48.869924,2.308011
444,Limon,Restaurant,48.868668,2.306459
445,Jaïs,Restaurant,48.862060940250196,2.3094074428081512
446,Mamé Kitchen,Restaurant,48.871311,2.307736
447,Sassolini,Restaurant,48.86497226490296,2.311414696071492
448,Roxie,Restaurant,48.87071,2.309247
449,Théâtre Saint-Germain,Comedy Club,48.85303265864376,2.3312634229660034
450,Bistro 25,Gastropub,48.86919074,2.30760081
451,La Malouiniere,Restaurant,48.87063009949777,2.3263538105260917
452,Bonellis,Restaurant,48.870789,2.308116
453,Cantine Beauvau,Restaurant,48.87152763588029,2.31581466540337
454,A Bord Du Victoria,Restaurant,48.86349013378297,2.312747771393576
455,Subway,Sandwich Place,48.882598,2.338141
456,Colchide,Restaurant,48.882902,2.339533
457,Vermillon,Restaurant,48.882229,2.331358
458,La Marmite,Restaurant,48.88215527589082,2.339610225316479
459,Le Sabot Rouge,Restaurant,48.88651237020696,2.3407299243078485
460,Bar à Bulles,Bar,48.88442879184952,2.3321514781743606
461,Loyal,Restaurant,48.880693851482604,2.3270745174472345
462,Le Shack,Coworking Space,48.871664,2.330166
463,Le Petit Coq Noir,Restaurant,48.87553900763649,2.322970368131791
464,Café du Rocher Saint-Lazare,Restaurant,48.87564869268006,2.323358383725864
465,Le Pub 27,Pub,48.87659771567745,2.3234126655003475
466,Ago Paris,Restaurant,48.885996707160594,2.393651604652405
467,La Creperie,Restaurant,48.87943531,2.41264563
468,Monsieur Culbuto,Restaurant,48.871633673720055,2.392398855953603
469,Domino's Pizza,Pizza Place,48.887440399909345,2.3887214592989494
470,Les Nouveaux Sauvages,Bar,48.87159,2.392459
471,CAMPANILE PARIS EST - Pantin,Hotel,48.890946570355716,2.403397408267627
472,Le Payenké,Restaurant,48.883977644224174,2.3994117569162188
473,Olabar,Restaurant,48.889227,2.410247
474,Coup De Tete,Restaurant,48.874621,2.386687
475,L'Inattendu,Music Venue,48.89022943621114,2.4030232429504395
476,Courtepaille,Steakhouse,48.89386,2.39822
477,Boucherie L'Écorcheur,Butcher,48.883342625797525,2.375620571033169
478,Kiwizine,Restaurant,48.87368596666666,2.38293345
479,Chez Véro,Restaurant,48.871378,2.380522
480,my boat,Restaurant,48.89098358154297,2.3957347869873047
481,Au Petit Coin,Restaurant,48.891603,2.404189
482,Antioche,Restaurant,48.873668,2.389785
483,cantine 100 petit,Restaurant,48.88625325542366,2.390721672812836
484,les comestibles,Restaurant,48.871506,2.392608
485,Paris Porte des Lilas 20e,Restaurant,48.87748,2.41007
486,Dame Jane,Restaurant,48.87105632137539,2.3809379233606025
487,Yokoron,Restaurant,48.893461,2.401566
488,La Suite,Restaurant,48.884922,2.392467
489,Là-haut,Restaurant,48.870600438977746,2.3954782726298394
490,Legato,Bar,48.889973,2.399188
491,L'Escargot,Restaurant,48.877068889191456,2.387881357667955
492,Chick' N Braisé,Restaurant,48.889558,2.401832
493,Cantine des Pyrénées,Restaurant,48.87106704711914,2.3928382396698
494,Bonjour Vietnam,Restaurant,48.873934,2.38807
495,Domino's Pizza,Pizza Place,48.87371605010193,2.3871396167354533
496,L’Aller Retour,Restaurant,48.865619,2.382011
497,La Pointe de Sangomar,Restaurant,48.872861,2.374452
498,Pata Krep',Restaurant,48.86351821645431,2.369377672906121
499,Angkora,Restaurant,48.86704379774553,2.374892234802246
500,Pizza Hut,Pizza Place,48.869588546290565,2.4023282056150492
501,Onze À Table,Restaurant,48.861751,2.374443
502,Diggity,Restaurant,48.86092,2.3813722
503,A Deux Pas,Restaurant,48.862316,2.379954
504,Autre Part,Restaurant,48.86639450165276,2.396714687347412
505,Top & Spicy,Restaurant,48.863648,2.386579
506,Comestibles & Marchand de Vins,Restaurant,48.861343,2.378424
507,Asian Food Halal,Restaurant,48.867622,2.37695
508,La Mamma,Restaurant,48.87016293421871,2.379137192967931
509,Le Diamant De Paris,Restaurant,48.86305353971146,2.3815835454336174
510,Today,Restaurant,48.867435,2.375295
511,Achille,Restaurant,48.86183507659892,2.3822522163391113
512,Le Divan japonais,Restaurant,48.86190199811712,2.3855605283782317
513,"Viens, poupoule",Restaurant,48.868403,2.385941
514,Afroosquare,Restaurant,48.861952411010265,2.3779201945224693
515,Pic & Chic,Restaurant,48.861994,2.379263
516,Gazon voltaire,Restaurant,48.860956,2.373914
517,L'Impasse,Restaurant,48.866408728282615,2.3792756171118494
518,Subway,Sandwich Place,48.88971211084044,2.2884407809550567
519,Domino's Pizza,Pizza Place,48.88084508322488,2.2924191084623544
520,Upper Cremerie,Restaurant,48.871086,2.2972147
521,Mana'o,Restaurant,48.890933,2.281033
522,Le Petit Banville,Restaurant,48.88291493716075,2.298331073035723
523,L’atelier Du 17,Restaurant,48.882984,2.302961
524,Royal étoile,Restaurant,48.876183,2.296075
525,Bencco Traiteur Et Table,Café,48.875516,2.303972
526,Le Marius,Restaurant,48.8916690292229,2.283580838972719
527,Restaurant Alan Geaam,Restaurant,48.871292,2.292235
528,Oresto Café,Restaurant,48.890796,2.289556
529,Infinito Bar,Bar,48.87962822,2.27849771
530,La Casa Vita,Restaurant,48.88505326,2.30635958
531,Jazz Club Étoile,Jazz Club,48.879517292327996,2.285033161751926
532,Paradox,Restaurant,48.88523771931825,2.306413732717118
533,Wok n'Pasta,Restaurant,48.884094,2.29719
534,Le XVI,Coffee Shop,48.87478893845477,2.291640593319075
535,Hôtel Vernet,Hotel,48.872026834918344,2.2979324897841917
536,Chaptal,Restaurant,48.89171658571428,2.2833995000000002
537,square by circle,Restaurant,48.875425,2.295397
538,Cantine Smile,Restaurant,48.88997400397588,2.280058910134004
539,Lib'Artist,Restaurant,48.878539366985756,2.2835037968461185
540,Pause Gourmet,Restaurant,48.890897,2.291997
541,John John John,Restaurant,48.827376,2.369606
542,Caminito Cabaret,Restaurant,48.8270664105023,2.374364896653814
543,Gang Nam,Restaurant,48.82619,2.3716786
544,KFC Paris Place Italie,Fast Food Restaurant,48.83075305,2.35693908
545,KFC Paris Tolbiac,Fast Food Restaurant,48.82629599,2.35688427
546,Copacabana,Restaurant,48.81618327,2.37721865
547,Subway,Sandwich Place,48.8334379,2.353845
548,Les 400 Coups,Restaurant,48.837223902875785,2.3820515020259463
549,Pasta Subito,Restaurant,48.82822603750802,2.372484291359386
550,Nouroz,Restaurant,48.824879,2.376467
551,Subway,Sandwich Place,48.827092,2.367768
552,Hoa Tang,Restaurant,48.823206,2.365515
553,RIE du 103,Restaurant,48.82975,2.376968
554,Le Patay's,Restaurant,48.825465,2.374782
555,Cantine Odyssée,Restaurant,48.830452,2.377082
556,Malis,Restaurant,48.824229,2.366453
557,L’envol,Restaurant,48.832336,2.380559
558,Côté Plage,Beer Garden,48.8329470293512,2.379497785956822
559,les 3 A,Restaurant,48.822119,2.355294
560,Comme à La Campagne,Restaurant,48.83010740730451,2.367447764336248
561,Mortensen,Restaurant,48.839367,2.360079
562,L'Audiernes,Restaurant,48.833551,2.370582
563,O Vieilles Kanailles,Restaurant,48.840535,2.373159
564,Dans La Cuisine,Restaurant,48.826797,2.3804846
565,La Table 34,Restaurant,48.83884050850801,2.3703311383724213
566,Treizieme Sens,Restaurant,48.82032621,2.37336243
567,Cantine Score,Restaurant,48.82940161488053,2.3925983330429434
568,Espace Aurore,Restaurant,48.82451508,2.37188355
569,Arpège - Axe,Restaurant,48.83111391117952,2.377003840724192
570,Comptoir O'Jules,Restaurant,48.83075233477512,2.3548343967924783
571,Urban Pasta,Restaurant,48.828735,2.38157
572,Le Tassili,Restaurant,48.831567,2.378095
573,Accenture Restaurant Entreprise,Restaurant,48.831094798376085,2.3770441044971706
574,Péniche Boer 2,Nightclub,48.83646550837826,2.3754072714729046
575,L'Avenir,Café,48.82564926147461,2.354599714279175
576,RIE Immeuble Lumiere,Corporate Cafeteria,48.831550397883845,2.3888720690307017
577,Cafétéria du Groupe Accor,Cafeteria,48.83039127416307,2.376853368419217
578,Boulom,Restaurant,48.893614,2.335704
579,First Lap,Restaurant,48.878187,2.340588
580,Chez Michou,Piano Bar,48.88299752058316,2.339615805369867
581,dégaine,Restaurant,48.902726,2.342702
582,Bistronomie Les Frangins,Bistro,48.882389,2.333074
583,Les Petits Cousins,Restaurant,48.88356,2.341809
584,Delicat's,Restaurant,48.876717433832596,2.3369930538827473
585,Berrie,Restaurant,48.87666580161681,2.335558980703354
586,Le Népo,Restaurant,48.88905350733784,2.3346543716986603
587,Skb,Restaurant,48.89105,2.3312225
588,Ma Biche,Restaurant,48.884267007644304,2.3366452786579597
589,Ô Sud,Restaurant,48.8871,2.347969
590,Abdul Fast Foods,Restaurant,48.89138761777988,2.3500250159955733
591,le toit du dépanneur,Restaurant,48.88226146711124,2.3332309699617326
592,Restaurant Adminitratif ASSP De Marcadet-Poisonnier,Restaurant,48.89264927823436,2.353013066660513
593,Les Rillettes,Restaurant,48.880038998643535,2.337658098550652
594,LouLou Montmartre,Restaurant,48.88681259,2.34454999
595,Pains A La Ligne,Restaurant,48.88563965661164,2.355684835660533
596,Sanguine,Restaurant,48.89336,2.340164
597,Cantine SNCF Paris Nord,Restaurant,48.881458307935816,2.353232344012468
598,Dixit,Restaurant,48.892193,2.342714
599,Grill Express Uvac,Restaurant,48.88928415779743,2.3482954502105713
600,Restaurant Môm'Art by Gregory Cohen,Restaurant,48.8836728664847,2.342701032757759
601,Restaurant,Restaurant,48.886677,2.342874
602,Côté Soleil,Restaurant,48.881905,2.34552
603,Au Clocher de Montmartre,Restaurant,48.88690504552283,2.3444764947312673
604,Noun,Restaurant,48.893406,2.340208
605,Mokko,Restaurant,48.890089,2.342213
606,Le Caulaincourt,Restaurant,48.88950460678654,2.3361799120903015
607,Chez Ben,Restaurant,48.894099,2.345316
608,Lahore Lahore,Restaurant,48.891206234992836,2.349980581442958
609,Fingle,Restaurant,48.891145,2.348775
610,Lounge Royal,Restaurant,48.90285171673497,2.3613432162586636
611,le 15,Restaurant,48.895378,2.344914
612,Montmartre Atelier,Wine Bar,48.88341191314828,2.3413761263456765
613,Les Toqués,Restaurant,48.89409244875334,2.3430970172357353
614,Atelier 72 - Chez Poulpo,Restaurant,48.84493140777362,2.349623143672943
615,La Main au Panier By Michel Forever,Casino,48.85001881,2.35337153
616,Café des Bains,Restaurant,48.859444,2.355856
617,Baby Weng,Restaurant,48.858235,2.353764
618,Bistrot Paris St-Germain,Restaurant,48.84975377555402,2.350747777789564
619,Le Saïgon,Restaurant,48.84456,2.349362
620,Zine,Restaurant,48.873577,2.3158286
621,Washingtonia,Restaurant,48.873725,2.317669
622,Sources,Restaurant,48.873656895122735,2.3226879029887804
623,Verde Paris,Restaurant,48.867611,2.301344
624,Café 52,Restaurant,48.869078,2.303048
625,Cool And The Kitchen,Restaurant,48.87311153204425,2.3128571680634096
626,Les Bols De Jean,Restaurant,48.873644,2.314775
627,Café Blanc Courrèges,Restaurant,48.868138928076156,2.3037141843838764
628,Café Chic,Bar,48.872193500459474,2.312598233651997
629,ïnuï - Poke Bowl à Paris,Restaurant,48.874485,2.320749
630,Barclay,Restaurant,48.869704107005006,2.3012440009407023
631,Cinesushi,Restaurant,48.875567483396594,2.3230584213145766
632,Krug  clement marot,Restaurant,48.86777858673756,2.303112061143935
633,L'Atelier Renault Café,Restaurant,48.87033882494138,2.305640016830931
634,Domino's Pizza Le Kremlin-Bicêtre,Pizza Place,48.8110553,2.3622564
635,Restaurant Jo&Joe Paris-Gentilly,Restaurant,48.81624447051151,2.3381218314170837
636,Les Pissenlits par la racine,Restaurant,48.82781706483519,2.3503618517503497
637,L'Espérance,Restaurant,48.827525,2.348757
638,Domino's Pizza,Pizza Place,48.82562969284558,2.3492791738183314
639,Nouva,Restaurant,48.834948,2.344986
640,Aux Delices De La Butte,Restaurant,48.82937856596502,2.3513343061402985
641,La Touraine,Restaurant,48.832772537959826,2.353367404610307
642,Chinaski,Coffee Shop,48.840176,2.350294
643,Alberto Restorante,Restaurant,48.843596,2.349472
644,Le Bel Ordinaire,Restaurant,48.838881,2.350275
645,Le Club,Restaurant,48.83558951578428,2.342723700710804
646,La Baraka,Restaurant,48.83535348057645,2.326164805746519
647,kathmandu,Restaurant,48.845922,2.353206
648,Solstice,Restaurant,48.84023,2.345954
649,La Marmite de Martine,Restaurant,48.842428,2.351545
650,Specialites Francaise,Restaurant,48.84314117072193,2.3491081309747006
651,Oka,Restaurant,48.83992851895175,2.346101403236389
652,Fondues Raclettes Pierrades,Restaurant,48.841923356911416,2.3498670905039787
653,Sellae,Restaurant,48.838659,2.359573
654,cap99,Restaurant,48.84309,2.349252
655,Le Vin Qui Danse !,Restaurant,48.83684276416333,2.3472812286882756
656,Fuumi Sushi-Burrito,Restaurant,48.83948,2.350745
657,A bout de souffle,Restaurant,48.839659,2.332437
658,Brasserie Victoria,Restaurant,48.84332343999999,2.35254246
659,Domino's Pizza,Pizza Place,48.83878103742531,2.35731840133667
660,Cafe a Vins,Restaurant,48.840638,2.351722
661,Marguay,Restaurant,48.837183,2.349888
662,25 rue Daubenton,Restaurant,48.841415,2.354943
663,au petit klaada,Restaurant,48.83786559190094,2.352089124028183
664,Le Root's,Wine Bar,48.844743703837885,2.349665602817994
665,Les Garnements,Restaurant,48.84773088401315,2.373750766136452
666,Marcelle,Restaurant,48.850683,2.376809
667,Subway,Sandwich Place,48.84476731175829,2.38991598205871
668,Pizza Hut,Pizza Place,48.845508,2.392744
669,Subway,Fast Food Restaurant,48.8524229,2.3887164
670,Cinema Cafe,Restaurant,48.86072583292539,2.367438313754002
671,Nous 4,Restaurant,48.846813,2.379154
672,La Poulette de Grain,Restaurant,48.849877,2.387323
673,Cantine Sauvage,Restaurant,48.850345,2.381262
674,Le Tintilou,Restaurant,48.8504157379562,2.3872195689000395
675,Noisette,Restaurant,48.845212,2.383008
676,Cantine Thaï,Restaurant,48.85260849495445,2.3623994481593935
677,Chez Popeille,Restaurant,48.85287976200528,2.374612492304374
678,Privé De Dessert,Restaurant,48.850189,2.376222
679,La Barra Latina,Café,48.860254179853925,2.3815378036290014
680,A CURSITA,Restaurant,48.849945,2.38664
681,Le Café Chinois,Coffee Shop,48.85725825450675,2.366257942340953
682,NANA,Restaurant,48.856885445656005,2.3720112369924893
683,Tchakaina De Boukkhara,Restaurant,48.854747,2.369587
684,Cantine BPCE/NATIXIS,Restaurant,48.8431,2.3693
685,Soli,Restaurant,48.858423577834756,2.37939818872825
686,Restaurant administratif,Restaurant,48.84720550724002,2.3588174384864837
687,Le Petit Bougnat,Restaurant,48.85033060632925,2.3825941769660477
688,FICH,Restaurant,48.85921123963346,2.367685685192288
689,Restaurant Administratif Morland,Restaurant,48.84944734394302,2.3625904323456175
690,La Capitainerie,Restaurant,48.856225278724494,2.378535675242269
691,Miel & Paprika,Restaurant,48.850214,2.37819628
692,0'14,Restaurant,48.851033,2.383821
693,L'Amuse Gueule,Bistro,48.860279,2.356271
694,Golden Spoon,Restaurant,48.865374,2.285489
695,Daddy Bear,Restaurant,48.868,2.304637
696,Victor Et Capucine,Restaurant,48.86622819611705,2.28683954257184
697,Chez Clément Marbeuf,Restaurant,48.86878535948967,2.3034242027869922
698,histoire,Restaurant,48.8645,2.288655
699,Orrida Mensa Aziendale,Restaurant,48.842908,2.371989
700,Chaudes Les Sandwiches,Restaurant,48.84613651139151,2.3544973511214073
701,Focacceria,Restaurant,48.875803,2.336469
702,Au Coin,Restaurant,48.856463,2.402006
703,Dame Nation,Restaurant,48.850792,2.3924968
704,Le Grand Café,Brewery,48.849698,2.41757821
705,O'Tacos Paris Gambetta,Food Service,48.86487518,2.39680885
706,Best Food,Restaurant,48.853125,2.406005
707,Loulou,Restaurant,48.850455876181805,2.389601469039917
708,Les Bienveillants,Restaurant,48.853143,2.410418
709,Les Pianos,Restaurant,48.85483,2.423063
710,La Tête De Chou,Restaurant,48.85480185458864,2.3974564849230404
711,BIRDY’S,Restaurant,48.851777,2.399442
712,Darock,Restaurant,48.856724,2.3960707
713,Shokuyoku,Restaurant,48.858311,2.390703
714,Chez Betty,Restaurant,48.864404215487134,2.3983240127563477
715,Harran,Restaurant,48.85523700648349,2.420456562491727
716,Venizia,Restaurant,48.858962,2.409643
717,Le Panoramique,Restaurant,48.854545,2.415264
718,Events Cafe,Salad Place,48.85199240699506,2.4160192981866313
719,Urfa Kebab 63,Restaurant,48.847656,2.4113538
720,Chez Léa,Restaurant,48.85276,2.4187503
721,Artishow Cabaret,Restaurant,48.85175546649258,2.3891318785443025
722,Sofiane,Restaurant,48.852691,2.397657
723,O Gib,Restaurant,48.85399,2.4205987
724,Hôtel De La Paix,Restaurant,48.85376,2.417655
725,Self Service,Restaurant,48.859974,2.412605
726,Tontonville Bagnolet,Hotel,48.861204,2.415682
727,Bolée Parmentier,Restaurant,48.863217,2.414753
728,Les Floralies,Restaurant,48.85483169555664,2.415325164794922
729,Chez François,Restaurant,48.850140879735065,2.396288077254565
730,le Floralise,Restaurant,48.85631561279297,2.4099373817443848
731,Sheryane,Restaurant,48.85965369893653,2.414976990869133
732,Gie Gam-Restaurant,Restaurant,48.849304,2.417628
733,Aux Themes,Restaurant,48.85738,2.398771
734,Bohemian,Restaurant,48.84863,2.419812
735,La Tradition,Restaurant,48.855302,2.401238
736,Cooling,Restaurant,48.85775943009868,2.4272704124450684
737,Alexia,Restaurant,48.85669434284585,2.394154755368125
738,Aristote,Restaurant,48.85271,2.403888
739,Printemp's Cantine,Restaurant,48.84757557870284,2.403822734042025
740,Gabicook,Restaurant,48.84912622763757,2.421012359007434
741,L'Ogresse,Bar,48.861075,2.405121
742,Les Arômes Café,Restaurant,48.8494876600725,2.4185781476127475
743,La Tourelle,Café,48.84635863665183,2.418486936225339
744,Le Vingtième,Bar,48.86417015119036,2.407336329002324
745,L'Inattendu,Restaurant,48.83805844157923,2.281169146299362
746,La Buvette du Parc,Restaurant,48.839691,2.275618
747,750g La Table,Restaurant,48.83375085196542,2.290128579736997
748,Saint Mercure,Restaurant,48.8360657,2.28431527
749,La carotte verte,Restaurant,48.834345,2.295566
750,Restaurant Bygtel Le spot,Restaurant,48.83319963748016,2.26910814980435
751,Cantine Eurest Le Colisee,Restaurant,48.82777425096226,2.2703820995298782
752,Le Petit Versailles,Restaurant,48.845135,2.27116
753,Par’issy,Restaurant,48.829721,2.284026
754,Le Beyritus,Restaurant,48.841137,2.2660751
755,Chez Nous,Restaurant,48.842094,2.277737
756,Paris Aquaboulevard 15e,Restaurant,48.8324,2.27663
757,Maison Park,Restaurant,48.8361496,2.2928234999999404
758,Canal Street,Bar,48.831388,2.276415
759,Terres du Sud,Restaurant,48.834379760673315,2.288852334022522
760,Léon de Bruxelles,Restaurant,48.849981113236815,2.283754783431081
761,R.I.E Le Ponant,Restaurant,48.84365322517467,2.2743647940237324
762,Restaurant 23e Etage Hotel Pullmann,Restaurant,48.83164346518169,2.2783756256103516
763,Saveur et Plaisir,Restaurant,48.834444508134524,2.2885260592814207
764,Delis de  cuisine,Restaurant,48.82758943217249,2.2695245574741207
765,Le Centre Du Monde,Restaurant,48.835383973592755,2.2894221379006794
766,Cantine RIE EOS,Restaurant,48.8341589594074,2.2656545810004345
767,Le 217,Restaurant,48.838524,2.399076
768,La Pantoche,Halal Restaurant,48.848251,2.38706
769,Subway,Sandwich Place,48.82551000715795,2.393990054814253
770,Domino's pizza,Pizza Place,48.841443595893,2.3868367349938353
771,Domino's Pizza Paris 12 - Bizot,Pizza Place,48.83546237185894,2.4015950729990436
772,La Cantine,Restaurant,48.8412,2.394213
773,Festins,Restaurant,48.83818443947624,2.3999188181318107
774,Le Gout Du Sable,Restaurant,48.839819,2.398164
775,Espace Detente,Restaurant,48.8322,2.3982108
776,Bar à Momos,Restaurant,48.849733,2.387078
777,Dony's Cafe,Restaurant,48.839297470889306,2.3918410635450242
778,Le Nemrod,Wine Bar,48.841631,2.387471
779,Le Pavillon Paris,Restaurant,48.832954,2.400518
780,Koulibiak,Restaurant,48.83597,2.385758
781,Angora,Restaurant,48.83849504562955,2.389751672744751
782,Le Tiepolo,Restaurant,48.82522546369277,2.3935097485377734
783,Lusitano Grill,Restaurant,48.838763,2.391953
784,La Cantoche,Restaurant,48.847728704430835,2.386571351548795
785,Les 2 Gourmets,Restaurant,48.84567439586216,2.3818205757665307
786,Restaurant Rosa,Restaurant,48.84488263244978,2.383561508764069
787,Piadina Caffé,Restaurant,48.844031,2.389644
788,La Ferme du Marais,Restaurant,48.8598407269122,2.3544618487358093
789,Kook Art,Restaurant,48.85806,2.3563
790,Restaurant Les Deux Theatres,Restaurant,48.87761586744754,2.3322196676821862
791,Vite et bien fait,Restaurant,48.879146,2.329244
792,La Min,Restaurant,48.850509,2.388156
793,La Mi Fa,Restaurant,48.859734,2.3806
794,La cantine du 3ème goût,Restaurant,48.85721508937246,2.3850795124956545
795,La Cantine Playapp,Restaurant,48.85805504845698,2.372757099031118
796,Kitchen Lab,Restaurant,48.847543818945276,2.379066621946597
797,Le 105,Restaurant,48.84641,2.377482
798,Subway,Sandwich Place,48.827764,2.327593
799,Le Relais de Gentilly,Restaurant,48.81363258947487,2.3321163654327393
800,Green cafe,Restaurant,48.83116462459668,2.3285436630249023
801,Le Jazz Coffee,Restaurant,48.817116,2.3217053
802,Auto Passion Café,Restaurant,48.82361239254502,2.324756383895874
803,El Farniente,Restaurant,48.82426442817009,2.32188130882541
804,Ganesh,Restaurant,48.823875505903345,2.3241182503831306
805,Pin-Up Kitchen,Restaurant,48.826125584957126,2.3241381203793465
806,Rone Sandwich,Restaurant,48.82878363132477,2.3235011100769043
807,Chez Nadia Et Pascale Pineau,Restaurant,48.818662,2.323523
808,STIME - La Sphore (cantine),Restaurant,48.818920841728605,2.3290982164937213
809,Papa Paris,Restaurant,48.82737195,2.3275572125
810,Gourmand'in,Restaurant,48.81651618392828,2.3267646604829357
811,Zeyer Salle 1er Etage,Restaurant,48.82803,2.326667
812,Oh And Co,Restaurant,48.84304310665317,2.3065602628776105
813,Mama Restaurant Paris West,Restaurant,48.829304,2.292312
814,Le Costa,Restaurant,48.832344061462535,2.312895655632019
815,Au Pot Au Feu,Restaurant,48.84148291473025,2.313871139399772
816,Pizza Hut,Pizza Place,48.8289947272231,2.3077839758082064
817,Le Mélisse,Restaurant,48.83101807499913,2.3022378987661796
818,Marwa,Restaurant,48.83044,2.295889
819,Intuition Gourmande,Restaurant,48.841402478091965,2.2994320242156703
820,Gabia,Restaurant,48.831497,2.3026564
821,My Way,Restaurant,48.826785,2.309883
822,songsang,Restaurant,48.838703,2.299704
823,Domino's Pizza Paris 15 - Cambronne,Pizza Place,48.84585735230963,2.302104600479879
824,Ristorante Italiano da Pupetta,Italian Restaurant,48.8330673,2.3040272
825,Le Troquet,Restaurant,48.84483762997048,2.3057223388660604
826,Le Café Chineur,Bar,48.83187720784914,2.3142919250072542
827,Marguereat,Restaurant,48.822941,2.304655
828,Self France Telecom Losserand,Restaurant,48.82820095869832,2.3057502836631008
829,La Baraka,Restaurant,48.83385715148854,2.3078730351296715
830,Excel,Restaurant,48.83569859536564,2.3015284538269043
831,Le Mandarin De Vanves,Restaurant,48.827503433513016,2.3064401925561535
832,Chez Papaye,Restaurant,48.82815170288086,2.284609317779541
833,Restaurant d'entreprise Orange,Restaurant,48.825689,2.296763
834,tente en pie,Restaurant,48.851824,2.339637
835,L'âne et la mule,Restaurant,48.852144426296576,2.336129032268052
836,Augustin Bistrot,Restaurant,48.83564590973816,2.3250556706006975
837,Tamam Kitchen,Restaurant,48.831109,2.319537
838,L'Île au Blé Noir,Restaurant,48.833593,2.317457
839,Les Cop's,Restaurant,48.834106021525436,2.3222074987121744
840,Domino's Pizza,Pizza Place,48.82845646851961,2.3163928802421196
841,Café Grenadine,Restaurant,48.833198,2.324822
842,Le bar des fleurs,Restaurant,48.83122001843569,2.316838023230465
843,Cantine Cadbury,Restaurant,48.822010685713316,2.314220666885376
844,Park Avenue,Restaurant,48.89711434066516,2.385112527089695
845,Le Dampierre,Restaurant,48.89433906888756,2.384384346974733
846,Le Rest'O,Restaurant,48.89563603954346,2.3878988246063138
847,Subway,Sandwich Place,48.902774,2.375464
848,Paris La Villette 19e,Restaurant,48.89708,2.38531
849,Subway,Sandwich Place,48.89605988905564,2.38906742460631
850,Domino's Pizza Paris 19 - Flandre,Pizza Place,48.888935909817334,2.374985242178809
851,Mingway,Restaurant,48.895471,2.401946
852,La Java,Restaurant,48.896157,2.401268
853,Auberkitchen,Restaurant,48.904705,2.391831
854,Eau Canal,Restaurant,48.896347175197896,2.4009864811353867
855,Kim Phúc,Restaurant,48.890251,2.377424
856,Le Curial,Restaurant,48.890304882655954,2.37218257662981
857,Les Moulins,Restaurant,48.89572421420677,2.4006586314928
858,Ristorante Italiano Fratello,Restaurant,48.898913,2.372784
859,Eurest Argonne,Restaurant,48.89697403874058,2.379320131654864
860,Eurest Hemisphère,Restaurant,48.89700876264034,2.3818123195258503
861,Restaurant Le Débarcadere,Restaurant,48.89706578370578,2.39707243747388
862,Soleil De Bodrum,Restaurant,48.90401206723566,2.39273610462321
863,BPSS La Minoterie,Restaurant,48.896636962890625,2.397331714630127
864,Anna Lisa,Restaurant,48.90187052413966,2.3763446415797795
865,La Passerelle,Restaurant,48.88615956796199,2.373302626487034
866,Little Garden Restaurant,Restaurant,48.90705,2.3798904
867,La Marquise,Restaurant,48.89711984593672,2.3998288857198062
868,O77,Restaurant,48.8885084231395,2.3780826380685776
869,Cap 18,Coworking Space,48.89595683826925,2.3678370619662337
870,Restaurant des Nations,Restaurant,48.861867,2.269534
871,Restaurant Brach,Restaurant,48.86124570883386,2.275068461894989
872,L'Atelier des Pains,Bakery,48.8584212,2.27349327
873,Subway,Sandwich Place,48.86232115735405,2.2763297050724987
874,Domino's Pizza,Pizza Place,48.85958266649085,2.2761276969652044
875,Pizza Hut,Pizza Place,48.869838958902875,2.290752835661465
876,Le Montespan,Restaurant,48.86457536909265,2.2779464721679688
877,La Place Longchamp,Restaurant,48.866436,2.2822795
878,Le 16' Art,Restaurant,48.868313684858684,2.281337468934143
879,La Cantine D'amazon,Restaurant,48.90439,2.3108306
880,Croque Factory,Restaurant,48.904796,2.325785
881,Au Petit Solognot,Restaurant,48.90059,2.308413
882,Le ghetto !,Restaurant,48.90129456011204,2.3297158993428306
883,La Veranda,Restaurant,48.9026215007309,2.3304882645606995
884,Cantine Sodexo,Restaurant,48.90375330348857,2.3188057154217963
885,L'Éden,Dive Bar,48.903487427568116,2.329712781339667
886,La bonne table,Restaurant,48.90326,2.327242
887,La Barricade,Restaurant,48.90341056555199,2.3338246328398347
888,Les Cops,Restaurant,48.852776,2.352779
889,L'Haussmannien,Restaurant,48.873668421066974,2.334921699062684
890,Paul,Bakery,48.86543887119138,2.4167137956725258
891,L'Atmosphère,Restaurant,48.87722163647862,2.4156434397184525
892,La Confidente,Restaurant,48.86825,2.401113
893,Le Petit Cuivré,Restaurant,48.876571,2.414143
894,Le Boezil,Restaurant,48.876728,2.4229336
895,Le P'tit Père,Restaurant,48.865959,2.395639
896,"Le jour, in the mood of",Restaurant,48.876386,2.413676
897,La Kahina,Restaurant,48.864994,2.398072
898,Les Farfadets,Restaurant,48.869586,2.394767
899,Le Quinze,Restaurant,48.8680830232226,2.403468365816669
900,Le P’tit Bistrot,Restaurant,48.869468,2.393351
901,Campanile - Le Restaurant,Restaurant,48.86566103415707,2.4166290461166655
902,L’entracte,Restaurant,48.869316,2.41698
903,Aux Ours,Bar,48.867536057374856,2.3966261744499207
904,Domino's Pizza Paris 20 - Gambetta,Pizza Place,48.86405153460531,2.3914912184200148
905,Le Diamant,Restaurant,48.866635,2.403408
906,Le Café des Sports,Sports Bar,48.86914347943936,2.391986834135949
907,La Stella,Restaurant,48.867524,2.280472
908,Masha,Restaurant,48.864537,2.288612
909,Le Café À Vapeur,Restaurant,48.878484,2.266863
910,Pizza Hut,Pizza Place,48.87867506124129,2.27829378881529
911,La Petite Ferme,Restaurant,48.87802299299774,2.2614478933666815
912,L'Archeste,Restaurant,48.861782139658196,2.278073072384359
913,Escale 58,Restaurant,48.86501771548615,2.2869898826361283
914,Galètiere,Restaurant,48.881692,2.268911
915,La Villa K,Restaurant,48.86660141,2.28158823
916,Restaurant Le 107,Restaurant,48.880204135980215,2.2707559827145958
917,Cantine Janson,Restaurant,48.865841,2.280916
918,bien mangé,Restaurant,48.86367018440862,2.2845538253668654
919,Ma Poule aux Œufs d'Or,Restaurant,48.86668722446789,2.281277973283693
920,Le Vallès,Restaurant,48.90300917050009,2.336644085588572
921,La Cantine de Camille,Restaurant,48.90334094364817,2.3401891999418445
922,Le Lutetia,Restaurant,48.85330876415902,2.3541111499071117
923,Restaurant O'40,Restaurant,48.8380086782728,2.3180633698158872
924,Mezze du Liban,Restaurant,48.8624381600184,2.3798880044935435
925,Chez René et Gabin,Restaurant,48.87031838008015,2.3793768882751465
926,Nordnord,Bar,48.889857,2.362979
927,La Palme,Restaurant,48.89963326433557,2.3524379507741555
928,Poulet Braisé,Restaurant,48.891975,2.3496137
929,Mama Africa,Restaurant,48.88554736616637,2.3725420427822974
930,LR Restaurant Paris 18,Restaurant,48.901597551097346,2.3597786901674245
931,Melting Pot,Bar,48.884988,2.355591
932,Domino's Pizza,Pizza Place,48.890274292026554,2.3556441110276864
933,au canal 8,Restaurant,48.884846,2.36946
934,Armée du Salut,Restaurant,48.88173872912652,2.3622904455379516
935,Ayadi Gourmet Restrant,Restaurant,48.850609,2.348818
936,La Taverne du Nil,Restaurant,48.852272,2.35467
937,Food,Restaurant,48.8538656722782,2.362082004547119
938,Bar À Lode,Restaurant,48.849476,2.3518498
939,Notre Dame Cafe,Café,48.853387,2.349973
940,La marmitte,Restaurant,48.853911,2.361563
941,C'est Mon Plaisir,Restaurant,48.85223964016875,2.3569735164288694
942,Ship-inn,Restaurant,48.823889,2.42285
943,Arevig,Restaurant,48.82174353294057,2.414673359029634
944,Pizza Hut,Pizza Place,48.817822,2.308578
